{
   "type": "FeatureCollection",
   "features": [
  {
    "type": "Feature",
    "geometry": {
       "type": "Point",
       "coordinates":  [  20.744699, -8.419200 ]
    },
    "properties": {
    "IP Address":"41.223.156.170",
    "Name":"ANGOLATELECOM"
    }
  },
  {
    "type": "Feature",
    "geometry": {
       "type": "Point",
       "coordinates":  [  18.500000, -12.500000 ]
    },
    "properties": {
    "IP Address":"41.221.254.22",
    "Name":"EBONET"
    }
  },
  {
    "type": "Feature",
    "geometry": {
       "type": "Point",
       "coordinates":  [  25.911900, -24.646400 ]
    },
    "properties": {
    "IP Address":"168.167.8.1",
    "Name":"BTC-GATE1"
    }
  },
  {
    "type": "Feature",
    "geometry": {
       "type": "Point",
       "coordinates":  [  25.911900, -24.646400 ]
    },
    "properties": {
    "IP Address":"168.167.220.2",
    "Name":"BTC-GATE1"
    }
  },
  {
    "type": "Feature",
    "geometry": {
       "type": "Point",
       "coordinates":  [  25.000000, 0.000000 ]
    },
    "properties": {
    "IP Address":"41.242.128.134",
    "Name":"VODACOM-CONGO"
    }
  },
  {
    "type": "Feature",
    "geometry": {
       "type": "Point",
       "coordinates":  [  38.000000, 8.000000 ]
    },
    "properties": {
    "IP Address":"213.55.95.15",
    "Name":"EthioNet-AS"
    }
  },
  {
    "type": "Feature",
    "geometry": {
       "type": "Point",
       "coordinates":  [  38.000000, 8.000000 ]
    },
    "properties": {
    "IP Address":"213.55.96.149",
    "Name":"EthioNet-AS"
    }
  },
  {
    "type": "Feature",
    "geometry": {
       "type": "Point",
       "coordinates":  [  38.000000, 8.000000 ]
    },
    "properties": {
    "IP Address":"213.55.96.150",
    "Name":"EthioNet-AS"
    }
  },
  {
    "type": "Feature",
    "geometry": {
       "type": "Point",
       "coordinates":  [  38.000000, 8.000000 ]
    },
    "properties": {
    "IP Address":"213.55.85.42",
    "Name":"EthioNet-AS"
    }
  },
  {
    "type": "Feature",
    "geometry": {
       "type": "Point",
       "coordinates":  [  39.400002, 10.433300 ]
    },
    "properties": {
    "IP Address":"213.55.101.26",
    "Name":"EthioNet-AS"
    }
  },
  {
    "type": "Feature",
    "geometry": {
       "type": "Point",
       "coordinates":  [  38.000000, 8.000000 ]
    },
    "properties": {
    "IP Address":"213.55.90.6",
    "Name":"EthioNet-AS"
    }
  },
  {
    "type": "Feature",
    "geometry": {
       "type": "Point",
       "coordinates":  [  38.000000, 8.000000 ]
    },
    "properties": {
    "IP Address":"213.55.98.158",
    "Name":"EthioNet-AS"
    }
  },
  {
    "type": "Feature",
    "geometry": {
       "type": "Point",
       "coordinates":  [  38.000000, 1.000000 ]
    },
    "properties": {
    "IP Address":"41.204.161.16",
    "Name":"KENET-AS"
    }
  },
  {
    "type": "Feature",
    "geometry": {
       "type": "Point",
       "coordinates":  [  -0.130000, 51.500000 ]
    },
    "properties": {
    "IP Address":"194.201.253.8",
    "Name":"KENYAWEB"
    }
  },
  {
    "type": "Feature",
    "geometry": {
       "type": "Point",
       "coordinates":  [  38.000000, 1.000000 ]
    },
    "properties": {
    "IP Address":"41.89.96.80",
    "Name":"KENET-AS"
    }
  },
  {
    "type": "Feature",
    "geometry": {
       "type": "Point",
       "coordinates":  [  38.000000, 1.000000 ]
    },
    "properties": {
    "IP Address":"41.204.161.16",
    "Name":"KENET-AS"
    }
  },
  {
    "type": "Feature",
    "geometry": {
       "type": "Point",
       "coordinates":  [  47.000000, -20.000000 ]
    },
    "properties": {
    "IP Address":"41.188.42.18",
    "Name":"TGN"
    }
  },
  {
    "type": "Feature",
    "geometry": {
       "type": "Point",
       "coordinates":  [  47.000000, -20.000000 ]
    },
    "properties": {
    "IP Address":"41.188.61.248",
    "Name":"TGN"
    }
  },
  {
    "type": "Feature",
    "geometry": {
       "type": "Point",
       "coordinates":  [  33.299999, -13.666700 ]
    },
    "properties": {
    "IP Address":"41.70.16.34",
    "Name":"globe-as"
    }
  },
  {
    "type": "Feature",
    "geometry": {
       "type": "Point",
       "coordinates":  [  33.299999, -13.666700 ]
    },
    "properties": {
    "IP Address":"41.70.31.194",
    "Name":"globe-as"
    }
  },
  {
    "type": "Feature",
    "geometry": {
       "type": "Point",
       "coordinates":  [  34.000000, -13.500000 ]
    },
    "properties": {
    "IP Address":"41.87.6.25",
    "Name":"MTL-AS"
    }
  },
  {
    "type": "Feature",
    "geometry": {
       "type": "Point",
       "coordinates":  [  34.000000, -13.500000 ]
    },
    "properties": {
    "IP Address":"41.221.98.158",
    "Name":"MTL-AS"
    }
  },
  {
    "type": "Feature",
    "geometry": {
       "type": "Point",
       "coordinates":  [  32.589199, -25.965300 ]
    },
    "properties": {
    "IP Address":"196.3.96.21",
    "Name":"EMUNET"
    }
  },
  {
    "type": "Feature",
    "geometry": {
       "type": "Point",
       "coordinates":  [  32.589199, -25.965300 ]
    },
    "properties": {
    "IP Address":"196.3.99.98",
    "Name":"EMUNET"
    }
  },
  {
    "type": "Feature",
    "geometry": {
       "type": "Point",
       "coordinates":  [  32.589199, -25.965300 ]
    },
    "properties": {
    "IP Address":"41.220.160.149",
    "Name":"TDM-AS"
    }
  },
  {
    "type": "Feature",
    "geometry": {
       "type": "Point",
       "coordinates":  [  32.589199, -25.965300 ]
    },
    "properties": {
    "IP Address":"196.3.96.240",
    "Name":"EMUNET"
    }
  },
  {
    "type": "Feature",
    "geometry": {
       "type": "Point",
       "coordinates":  [  32.589199, -25.965300 ]
    },
    "properties": {
    "IP Address":"196.3.96.21",
    "Name":"EMUNET"
    }
  },
  {
    "type": "Feature",
    "geometry": {
       "type": "Point",
       "coordinates":  [  17.000000, -22.000000 ]
    },
    "properties": {
    "IP Address":"41.205.129.146",
    "Name":"TELECOM-NAMIBIA"
    }
  },
  {
    "type": "Feature",
    "geometry": {
       "type": "Point",
       "coordinates":  [  17.000000, -22.000000 ]
    },
    "properties": {
    "IP Address":"196.12.10.105",
    "Name":"Polytechnic-NA"
    }
  },
  {
    "type": "Feature",
    "geometry": {
       "type": "Point",
       "coordinates":  [  30.000000, -2.000000 ]
    },
    "properties": {
    "IP Address":"41.222.244.13",
    "Name":"NUS-AS"
    }
  },
  {
    "type": "Feature",
    "geometry": {
       "type": "Point",
       "coordinates":  [  30.000000, -2.000000 ]
    },
    "properties": {
    "IP Address":"197.243.16.110",
    "Name":"RDB"
    }
  },
  {
    "type": "Feature",
    "geometry": {
       "type": "Point",
       "coordinates":  [  30.000000, -2.000000 ]
    },
    "properties": {
    "IP Address":"197.243.16.104",
    "Name":"RDB"
    }
  },
  {
    "type": "Feature",
    "geometry": {
       "type": "Point",
       "coordinates":  [  18.423201, -33.925800 ]
    },
    "properties": {
    "IP Address":"137.158.158.44",
    "Name":"UCT"
    }
  },
  {
    "type": "Feature",
    "geometry": {
       "type": "Point",
       "coordinates":  [  18.400000, -33.983299 ]
    },
    "properties": {
    "IP Address":"196.21.236.147",
    "Name":"TENET-1"
    }
  },
  {
    "type": "Feature",
    "geometry": {
       "type": "Point",
       "coordinates":  [  24.000000, -29.000000 ]
    },
    "properties": {
    "IP Address":"146.182.34.110",
    "Name":"UOFS"
    }
  },
  {
    "type": "Feature",
    "geometry": {
       "type": "Point",
       "coordinates":  [  31.029200, -29.857901 ]
    },
    "properties": {
    "IP Address":"146.230.128.52",
    "Name":"TENET-1"
    }
  },
  {
    "type": "Feature",
    "geometry": {
       "type": "Point",
       "coordinates":  [  18.400000, -33.983299 ]
    },
    "properties": {
    "IP Address":"196.21.218.26",
    "Name":"TENET-1"
    }
  },
  {
    "type": "Feature",
    "geometry": {
       "type": "Point",
       "coordinates":  [  27.100000, -26.716700 ]
    },
    "properties": {
    "IP Address":"143.160.38.244",
    "Name":"PUKNET"
    }
  },
  {
    "type": "Feature",
    "geometry": {
       "type": "Point",
       "coordinates":  [  28.229401, -25.706900 ]
    },
    "properties": {
    "IP Address":"137.215.97.20",
    "Name":"TENET-1"
    }
  },
  {
    "type": "Feature",
    "geometry": {
       "type": "Point",
       "coordinates":  [  27.964701, -30.795401 ]
    },
    "properties": {
    "IP Address":"146.231.129.7",
    "Name":"Rhodes-Univ"
    }
  },
  {
    "type": "Feature",
    "geometry": {
       "type": "Point",
       "coordinates":  [  18.866800, -33.934601 ]
    },
    "properties": {
    "IP Address":"146.232.21.146",
    "Name":"TENET-1"
    }
  },
  {
    "type": "Feature",
    "geometry": {
       "type": "Point",
       "coordinates":  [  18.628500, -33.900200 ]
    },
    "properties": {
    "IP Address":"196.21.45.85",
    "Name":"TENET-1"
    }
  },
  {
    "type": "Feature",
    "geometry": {
       "type": "Point",
       "coordinates":  [  24.000000, -29.000000 ]
    },
    "properties": {
    "IP Address":"146.141.9.215",
    "Name":"TENET-1"
    }
  },
  {
    "type": "Feature",
    "geometry": {
       "type": "Point",
       "coordinates":  [  35.000000, -6.000000 ]
    },
    "properties": {
    "IP Address":"196.44.161.193",
    "Name":"UNIV-DAR"
    }
  },
  {
    "type": "Feature",
    "geometry": {
       "type": "Point",
       "coordinates":  [  35.000000, -6.000000 ]
    },
    "properties": {
    "IP Address":"41.73.194.141",
    "Name":"Zantel-AS"
    }
  },
  {
    "type": "Feature",
    "geometry": {
       "type": "Point",
       "coordinates":  [  35.000000, -6.000000 ]
    },
    "properties": {
    "IP Address":"41.93.37.4",
    "Name":"TERNET"
    }
  },
  {
    "type": "Feature",
    "geometry": {
       "type": "Point",
       "coordinates":  [  35.000000, -6.000000 ]
    },
    "properties": {
    "IP Address":"41.204.150.67",
    "Name":"Zantel-AS"
    }
  },
  {
    "type": "Feature",
    "geometry": {
       "type": "Point",
       "coordinates":  [  35.000000, -6.000000 ]
    },
    "properties": {
    "IP Address":"41.93.31.1",
    "Name":"TERNET"
    }
  },
  {
    "type": "Feature",
    "geometry": {
       "type": "Point",
       "coordinates":  [  35.750000, -6.183300 ]
    },
    "properties": {
    "IP Address":"41.78.64.5",
    "Name":"Zantel-AS"
    }
  },
  {
    "type": "Feature",
    "geometry": {
       "type": "Point",
       "coordinates":  [  32.565601, 0.315600 ]
    },
    "properties": {
    "IP Address":"196.43.133.74",
    "Name":"RENU"
    }
  },
  {
    "type": "Feature",
    "geometry": {
       "type": "Point",
       "coordinates":  [  30.000000, -15.000000 ]
    },
    "properties": {
    "IP Address":"41.63.1.2",
    "Name":"ZAMREN"
    }
  },
  {
    "type": "Feature",
    "geometry": {
       "type": "Point",
       "coordinates":  [  30.000000, -15.000000 ]
    },
    "properties": {
    "IP Address":"41.63.3.8",
    "Name":"ZAMREN"
    }
  },
  {
    "type": "Feature",
    "geometry": {
       "type": "Point",
       "coordinates":  [  27.150000, -14.500000 ]
    },
    "properties": {
    "IP Address":"41.63.16.6",
    "Name":"ZAMREN"
    }
  },
  {
    "type": "Feature",
    "geometry": {
       "type": "Point",
       "coordinates":  [  30.000000, -15.000000 ]
    },
    "properties": {
    "IP Address":"197.220.12.243",
    "Name":"afczas"
    }
  },
  {
    "type": "Feature",
    "geometry": {
       "type": "Point",
       "coordinates":  [  30.000000, -20.000000 ]
    },
    "properties": {
    "IP Address":"196.220.96.209",
    "Name":"NUoS-ASN"
    }
  },
  {
    "type": "Feature",
    "geometry": {
       "type": "Point",
       "coordinates":  [  31.044701, -17.817801 ]
    },
    "properties": {
    "IP Address":"41.78.77.122",
    "Name":"POWERTEL"
    }
  },
  {
    "type": "Feature",
    "geometry": {
       "type": "Point",
       "coordinates":  [  30.000000, -20.000000 ]
    },
    "properties": {
    "IP Address":"41.78.78.26",
    "Name":"POWERTEL"
    }
  },
  {
    "type": "Feature",
    "geometry": {
       "type": "Point",
       "coordinates":  [  30.000000, -20.000000 ]
    },
    "properties": {
    "IP Address":"197.155.226.212",
    "Name":"LIQUID-AS Liquid Telecommunications Ltd"
    }
  }
]
}
